[
  {
    "raw": "$GPGGA,134356.00,6442.4047,N,04031.2848,E,1,11,1.3,33,M,,M,,*5B",
    "hours": 13,
    "minutes" : 43,
    "seconds" : 56
  },
  {
    "raw": "$GPGGA,134305.00,6442.4046,N,04031.2878,E,1,10,1.3,37,M,,M,,*5A",
    "hours": 13,
    "minutes" : 43,
    "seconds" : 5
  },
  {
    "raw": "$GPGGA,134306.00,6442.4046,N,04031.2875,E,1,10,1.3,37,M,,M,,*54",
    "hours": 13,
    "minutes" : 43,
    "seconds" : 6
  },
  {
    "raw": "$GPGGA,134307.00,6442.4048,N,04031.2874,E,1,10,1.3,37,M,,M,,*5A",
    "hours": 13,
    "minutes" : 43,
    "seconds" : 7
  },
  {
    "raw": "$GPGGA,134308.00,6442.4049,N,04031.2874,E,1,9,1.5,36,M,,M,,*6B",
    "hours": 13,
    "minutes" : 43,
    "seconds" : 8
  },
  {
    "raw": "$GPGGA,134309.00,6442.4050,N,04031.2874,E,1,9,1.5,36,M,,M,,*62",
    "hours": 13,
    "minutes" : 43,
    "seconds" : 9
  },
  {
    "raw": "$GPGGA,134310.00,6442.4053,N,04031.2874,E,1,9,1.5,36,M,,M,,*69",
    "hours": 13,
    "minutes" : 43,
    "seconds" : 10
  },
  {
    "raw": "$GPGGA,134311.00,6442.4053,N,04031.2874,E,1,9,1.5,36,M,,M,,*68",
    "hours": 13,
    "minutes" : 43,
    "seconds" : 11
  },
  {
    "raw": "$GPGGA,134312.00,6442.4054,N,04031.2874,E,1,9,1.5,36,M,,M,,*6C",
    "hours": 13,
    "minutes" : 43,
    "seconds" : 12
  },
  {
    "raw": "$GPGGA,134313.00,6442.4056,N,04031.2872,E,1,9,1.5,36,M,,M,,*69",
    "hours": 13,
    "minutes" : 43,
    "seconds" : 13
  },
  {
    "raw": "$GPGGA,134314.00,6442.4057,N,04031.2873,E,1,9,1.5,36,M,,M,,*6E",
    "hours": 13,
    "minutes" : 43,
    "seconds" : 14
  },
  {
    "raw": "$GPGGA,134315.00,6442.4057,N,04031.2872,E,1,9,1.5,36,M,,M,,*6E",
    "hours": 13,
    "minutes" : 43,
    "seconds" : 15
  },
  {
    "raw": "$GPGGA,134316.00,6442.4057,N,04031.2873,E,1,9,1.5,36,M,,M,,*6C",
    "hours": 13,
    "minutes" : 43,
    "seconds" : 16
  },
  {
    "raw": "$GPGGA,134317.00,6442.4059,N,04031.2871,E,1,9,1.5,36,M,,M,,*61",
    "hours": 13,
    "minutes" : 43,
    "seconds" : 17
  },
  {
    "raw": "$GPGGA,134318.00,6442.4058,N,04031.2873,E,1,9,1.5,35,M,,M,,*6E",
    "hours": 13,
    "minutes" : 43,
    "seconds" : 18
  },
  {
    "raw": "$GPGGA,134319.00,6442.4060,N,04031.2872,E,1,9,1.5,35,M,,M,,*65",
    "hours": 13,
    "minutes" : 43,
    "seconds" : 19
  },
  {
    "raw": "$GPGGA,134320.00,6442.4061,N,04031.2873,E,1,9,1.5,35,M,,M,,*6F",
    "hours": 13,
    "minutes" : 43,
    "seconds" : 20
  },
  {
    "raw": "$GPGGA,134321.00,6442.4061,N,04031.2872,E,1,9,1.5,35,M,,M,,*6F",
    "hours": 13,
    "minutes" : 43,
    "seconds" : 21
  },
  {
    "raw": "$GPGGA,134322.00,6442.4061,N,04031.2874,E,1,9,1.5,35,M,,M,,*6A",
    "hours": 13,
    "minutes" : 43,
    "seconds" : 22
  },
  {
    "raw": "$GPGGA,134323.00,6442.4061,N,04031.2872,E,1,9,1.5,35,M,,M,,*6D",
    "hours": 13,
    "minutes" : 43,
    "seconds" : 23
  },
  {
    "raw": "$GPGGA,134324.00,6442.4061,N,04031.2874,E,1,9,1.5,35,M,,M,,*6C",
    "hours": 13,
    "minutes" : 43,
    "seconds" : 24
  },
  {
    "raw": "$GPGGA,134325.00,6442.4061,N,04031.2872,E,1,9,1.5,35,M,,M,,*6B",
    "hours": 13,
    "minutes" : 43,
    "seconds" : 25
  },
  {
    "raw": "$GPGGA,134326.00,6442.4059,N,04031.2870,E,1,10,1.3,35,M,,M,,*5F",
    "hours": 13,
    "minutes" : 43,
    "seconds" : 26
  },
  {
    "raw": "$GPGGA,134327.00,6442.4057,N,04031.2868,E,1,10,1.3,35,M,,M,,*59",
    "hours": 13,
    "minutes" : 43,
    "seconds" : 27
  },
  {
    "raw": "$GPGGA,134328.00,6442.4055,N,04031.2865,E,1,10,1.3,34,M,,M,,*58",
    "hours": 13,
    "minutes" : 43,
    "seconds" : 28
  },
  {
    "raw": "$GPGGA,134329.00,6442.4053,N,04031.2864,E,1,10,1.3,34,M,,M,,*5E",
    "hours": 13,
    "minutes" : 43,
    "seconds" : 29
  },
  {
    "raw": "$GPGGA,134330.00,6442.4052,N,04031.2863,E,1,10,1.3,34,M,,M,,*50",
    "hours": 13,
    "minutes" : 43,
    "seconds" : 30
  },
  {
    "raw": "$GPGGA,134331.00,6442.4053,N,04031.2863,E,1,10,1.3,34,M,,M,,*50",
    "hours": 13,
    "minutes" : 43,
    "seconds" : 31
  },
  {
    "raw": "$GPGGA,134332.00,6442.4052,N,04031.2861,E,1,10,1.3,34,M,,M,,*50",
    "hours": 13,
    "minutes" : 43,
    "seconds" : 32
  },
  {
    "raw": "$GPGGA,134333.00,6442.4051,N,04031.2860,E,1,10,1.3,34,M,,M,,*53",
    "hours": 13,
    "minutes" : 43,
    "seconds" : 33
  },
  {
    "raw": "$GPGGA,134334.00,6442.4050,N,04031.2860,E,1,10,1.3,34,M,,M,,*55",
    "hours": 13,
    "minutes" : 43,
    "seconds" : 34
  },
  {
    "raw": "$GPGGA,134335.00,6442.4050,N,04031.2859,E,1,10,1.3,34,M,,M,,*5E",
    "hours": 13,
    "minutes" : 43,
    "seconds" : 35
  },
  {
    "raw": "$GPGGA,134336.00,6442.4050,N,04031.2856,E,1,11,1.3,34,M,,M,,*53",
    "hours": 13,
    "minutes" : 43,
    "seconds" : 36
  },
  {
    "raw": "$GPGGA,134337.00,6442.4050,N,04031.2853,E,1,11,1.3,34,M,,M,,*57",
    "hours": 13,
    "minutes" : 43,
    "seconds" : 37
  },
  {
    "raw": "$GPGGA,134338.00,6442.4050,N,04031.2851,E,1,11,1.3,34,M,,M,,*5A",
    "hours": 13,
    "minutes" : 43,
    "seconds" : 38
  },
  {
    "raw": "$GPGGA,134339.00,6442.4050,N,04031.2850,E,1,11,1.3,34,M,,M,,*5A",
    "hours": 13,
    "minutes" : 43,
    "seconds" : 39
  },
  {
    "raw": "$GPGGA,134340.00,6442.4050,N,04031.2849,E,1,11,1.3,34,M,,M,,*5C",
    "hours": 13,
    "minutes" : 43,
    "seconds" : 40
  },
  {
    "raw": "$GPGGA,134341.00,6442.4050,N,04031.2846,E,1,11,1.3,34,M,,M,,*52",
    "hours": 13,
    "minutes" : 43,
    "seconds" : 41
  },
  {
    "raw": "$GPGGA,134342.00,6442.4050,N,04031.2845,E,1,11,1.3,34,M,,M,,*52",
    "hours": 13,
    "minutes" : 43,
    "seconds" : 42
  },
  {
    "raw": "$GPGGA,134343.00,6442.4050,N,04031.2843,E,1,11,1.3,34,M,,M,,*55",
    "hours": 13,
    "minutes" : 43,
    "seconds" : 43
  },
  {
    "raw": "$GPGGA,134344.00,6442.4050,N,04031.2841,E,1,11,1.3,34,M,,M,,*50",
    "hours": 13,
    "minutes" : 43,
    "seconds" : 44
  },
  {
    "raw": "$GPGGA,134345.00,6442.4048,N,04031.2840,E,1,11,1.3,34,M,,M,,*59",
    "hours": 13,
    "minutes" : 43,
    "seconds" : 45
  },
  {
    "raw": "$GPGGA,134346.00,6442.4049,N,04031.2839,E,1,11,1.3,34,M,,M,,*55",
    "hours": 13,
    "minutes" : 43,
    "seconds" : 46
  },
  {
    "raw": "$GPGGA,134347.00,6442.4048,N,04031.2838,E,1,11,1.3,34,M,,M,,*54",
    "hours": 13,
    "minutes" : 43,
    "seconds" : 47
  },
  {
    "raw": "$GPGGA,134348.00,6442.4047,N,04031.2836,E,1,11,1.3,33,M,,M,,*5D",
    "hours": 13,
    "minutes" : 43,
    "seconds" : 48
  },
  {
    "raw": "$GPGGA,134349.00,6442.4048,N,04031.2838,E,1,11,1.3,33,M,,M,,*5D",
    "hours": 13,
    "minutes" : 43,
    "seconds" : 49
  },
  {
    "raw": "$GPGGA,134350.00,6442.4049,N,04031.2840,E,1,11,1.3,33,M,,M,,*5B",
    "hours": 13,
    "minutes" : 43,
    "seconds" : 50
  },
  {
    "raw": "$GPGGA,134351.00,6442.4047,N,04031.2839,E,1,11,1.3,33,M,,M,,*5A",
    "hours": 13,
    "minutes" : 43,
    "seconds" : 51
  },
  {
    "raw": "$GPGGA,134352.00,6442.4049,N,04031.2841,E,1,11,1.3,33,M,,M,,*58",
    "hours": 13,
    "minutes" : 43,
    "seconds" : 52
  },
  {
    "raw": "$GPGGA,134353.00,6442.4048,N,04031.2841,E,1,11,1.3,33,M,,M,,*58",
    "hours": 13,
    "minutes" : 43,
    "seconds" : 53
  },
  {
    "raw": "$GPGGA,134354.00,6442.4047,N,04031.2844,E,1,11,1.3,33,M,,M,,*55",
    "hours": 13,
    "minutes" : 43,
    "seconds" : 54
  },
  {
    "raw": "$GPGGA,134355.00,6442.4048,N,04031.2845,E,1,11,1.3,33,M,,M,,*5A",
    "hours": 13,
    "minutes" : 43,
    "seconds" : 55
  }
]
