[
  {
    "raw": "$GPRMC,141950.827,A,3500.0,S,13830.0,E,5.0,15.0,181023,,,*00",
    "utc": 141950.827,
    "latitude": 3500.0,
    "latitude_direction": "S",
    "longitude": 13830.0,
    "longitude_direction": "E",
    "speed": 5.0,
    "track": 15.0,
    "date": 181023,
    "day": 18,
    "month": 10,
    "year": 23
  },
  {
    "raw": "$GPRMC,141951.327,A,3500.0,S,13830.0,E,5.0,15.0,181023,,,*0A",
    "utc": 141951.327,
    "latitude": 3500.0,
    "latitude_direction": "S",
    "longitude": 13830.0,
    "longitude_direction": "E",
    "speed": 5.0,
    "track": 15.0,
    "date": 181023,
    "day": 18,
    "month": 10,
    "year": 23
  },
  {
    "raw": "$GPRMC,141951.827,A,3500.0,S,13830.0,E,5.0,15.0,181023,,,*01",
    "utc": 141951.827,
    "latitude": 3500.0,
    "latitude_direction": "S",
    "longitude": 13830.0,
    "longitude_direction": "E",
    "speed": 5.0,
    "track": 15.0,
    "date": 181023,
    "day": 18,
    "month": 10,
    "year": 23
  },
  {
    "raw": "$GPRMC,141952.327,A,3500.0,S,13830.0,E,5.0,15.0,181023,,,*09",
    "utc": 141952.327,
    "latitude": 3500.0,
    "latitude_direction": "S",
    "longitude": 13830.0,
    "longitude_direction": "E",
    "speed": 5.0,
    "track": 15.0,
    "date": 181023,
    "day": 18,
    "month": 10,
    "year": 23
  },
  {
    "raw": "$GPRMC,141952.827,A,3500.0,S,13830.0,E,5.0,15.0,181023,,,*02",
    "utc": 141952.827,
    "latitude": 3500.0,
    "latitude_direction": "S",
    "longitude": 13830.0,
    "longitude_direction": "E",
    "speed": 5.0,
    "track": 15.0,
    "date": 181023,
    "day": 18,
    "month": 10,
    "year": 23
  },
  {
    "raw": "$GPRMC,141953.327,A,3500.0,S,13830.0,E,5.0,15.0,181023,,,*08",
    "utc": 141953.327,
    "latitude": 3500.0,
    "latitude_direction": "S",
    "longitude": 13830.0,
    "longitude_direction": "E",
    "speed": 5.0,
    "track": 15.0,
    "date": 181023,
    "day": 18,
    "month": 10,
    "year": 23
  },
  {
    "raw": "$GPRMC,141953.827,A,3500.0,S,13830.0,E,5.0,15.0,181023,,,*03",
    "utc": 141953.827,
    "latitude": 3500.0,
    "latitude_direction": "S",
    "longitude": 13830.0,
    "longitude_direction": "E",
    "speed": 5.0,
    "track": 15.0,
    "date": 181023,
    "day": 18,
    "month": 10,
    "year": 23
  },
  {
    "raw": "$GPRMC,141954.327,A,3500.0,S,13830.0,E,5.0,15.0,181023,,,*0F",
    "utc": 141954.327,
    "latitude": 3500.0,
    "latitude_direction": "S",
    "longitude": 13830.0,
    "longitude_direction": "E",
    "speed": 5.0,
    "track": 15.0,
    "date": 181023,
    "day": 18,
    "month": 10,
    "year": 23
  },
  {
    "raw": "$GPRMC,141954.827,A,3500.0,S,13830.0,E,5.0,15.0,181023,,,*04",
    "utc": 141954.827,
    "latitude": 3500.0,
    "latitude_direction": "S",
    "longitude": 13830.0,
    "longitude_direction": "E",
    "speed": 5.0,
    "track": 15.0,
    "date": 181023,
    "day": 18,
    "month": 10,
    "year": 23
  },
  {
    "raw": "$GPRMC,141955.327,A,3500.0,S,13830.0,E,5.0,15.0,181023,,,*0E",
    "utc": 141955.327,
    "latitude": 3500.0,
    "latitude_direction": "S",
    "longitude": 13830.0,
    "longitude_direction": "E",
    "speed": 5.0,
    "track": 15.0,
    "date": 181023,
    "day": 18,
    "month": 10,
    "year": 23
  },
  {
    "raw": "$GPRMC,141955.827,A,3500.0,S,13830.0,E,5.0,15.0,181023,,,*05",
    "utc": 141955.827,
    "latitude": 3500.0,
    "latitude_direction": "S",
    "longitude": 13830.0,
    "longitude_direction": "E",
    "speed": 5.0,
    "track": 15.0,
    "date": 181023,
    "day": 18,
    "month": 10,
    "year": 23
  },
  {
    "raw": "$GPRMC,141956.327,A,3500.0,S,13830.0,E,5.0,15.0,181023,,,*0D",
    "utc": 141956.327,
    "latitude": 3500.0,
    "latitude_direction": "S",
    "longitude": 13830.0,
    "longitude_direction": "E",
    "speed": 5.0,
    "track": 15.0,
    "date": 181023,
    "day": 18,
    "month": 10,
    "year": 23
  },
  {
    "raw": "$GPRMC,141956.827,A,3500.0,S,13830.0,E,5.0,15.0,181023,,,*06",
    "utc": 141956.827,
    "latitude": 3500.0,
    "latitude_direction": "S",
    "longitude": 13830.0,
    "longitude_direction": "E",
    "speed": 5.0,
    "track": 15.0,
    "date": 181023,
    "day": 18,
    "month": 10,
    "year": 23
  },
  {
    "raw": "$GPRMC,141957.327,A,3500.0,S,13830.0,E,5.0,15.0,181023,,,*0C",
    "utc": 141957.327,
    "latitude": 3500.0,
    "latitude_direction": "S",
    "longitude": 13830.0,
    "longitude_direction": "E",
    "speed": 5.0,
    "track": 15.0,
    "date": 181023,
    "day": 18,
    "month": 10,
    "year": 23
  },
  {
    "raw": "$GPRMC,141957.827,A,3500.0,S,13830.0,E,5.0,15.0,181023,,,*07",
    "utc": 141957.827,
    "latitude": 3500.0,
    "latitude_direction": "S",
    "longitude": 13830.0,
    "longitude_direction": "E",
    "speed": 5.0,
    "track": 15.0,
    "date": 181023,
    "day": 18,
    "month": 10,
    "year": 23
  },
  {
    "raw": "$GPRMC,141958.327,A,3500.0,S,13830.0,E,5.0,15.0,181023,,,*03",
    "utc": 141958.327,
    "latitude": 3500.0,
    "latitude_direction": "S",
    "longitude": 13830.0,
    "longitude_direction": "E",
    "speed": 5.0,
    "track": 15.0,
    "date": 181023,
    "day": 18,
    "month": 10,
    "year": 23
  },
  {
    "raw": "$GPRMC,141958.827,A,3500.0,S,13830.0,E,5.0,15.0,181023,,,*08",
    "utc": 141958.827,
    "latitude": 3500.0,
    "latitude_direction": "S",
    "longitude": 13830.0,
    "longitude_direction": "E",
    "speed": 5.0,
    "track": 15.0,
    "date": 181023,
    "day": 18,
    "month": 10,
    "year": 23
  },
  {
    "raw": "$GPRMC,141959.327,A,3500.0,S,13830.0,E,5.0,15.0,181023,,,*02",
    "utc": 141959.327,
    "latitude": 3500.0,
    "latitude_direction": "S",
    "longitude": 13830.0,
    "longitude_direction": "E",
    "speed": 5.0,
    "track": 15.0,
    "date": 181023,
    "day": 18,
    "month": 10,
    "year": 23
  },
  {
    "raw": "$GPRMC,141959.827,A,3500.0,S,13830.0,E,5.0,15.0,181023,,,*09",
    "utc": 141959.827,
    "latitude": 3500.0,
    "latitude_direction": "S",
    "longitude": 13830.0,
    "longitude_direction": "E",
    "speed": 5.0,
    "track": 15.0,
    "date": 181023,
    "day": 18,
    "month": 10,
    "year": 23
  },
  {
    "raw": "$GPRMC,142000.327,A,3500.0,S,13830.0,E,5.0,15.0,181023,,,*04",
    "utc": 142000.327,
    "latitude": 3500.0,
    "latitude_direction": "S",
    "longitude": 13830.0,
    "longitude_direction": "E",
    "speed": 5.0,
    "track": 15.0,
    "date": 181023,
    "day": 18,
    "month": 10,
    "year": 23
  },
  {
    "raw": "$GPRMC,142000.827,A,3500.0,S,13830.0,E,5.0,15.0,181023,,,*0F",
    "utc": 142000.827,
    "latitude": 3500.0,
    "latitude_direction": "S",
    "longitude": 13830.0,
    "longitude_direction": "E",
    "speed": 5.0,
    "track": 15.0,
    "date": 181023,
    "day": 18,
    "month": 10,
    "year": 23
  },
  {
    "raw": "$GPRMC,142001.327,A,3500.0,S,13830.0,E,5.0,15.0,181023,,,*05",
    "utc": 142001.327,
    "latitude": 3500.0,
    "latitude_direction": "S",
    "longitude": 13830.0,
    "longitude_direction": "E",
    "speed": 5.0,
    "track": 15.0,
    "date": 181023,
    "day": 18,
    "month": 10,
    "year": 23
  },
  {
    "raw": "$GPRMC,142001.827,A,3500.0,S,13830.0,E,5.0,15.0,181023,,,*0E",
    "utc": 142001.827,
    "latitude": 3500.0,
    "latitude_direction": "S",
    "longitude": 13830.0,
    "longitude_direction": "E",
    "speed": 5.0,
    "track": 15.0,
    "date": 181023,
    "day": 18,
    "month": 10,
    "year": 23
  },
  {
    "raw": "$GPRMC,142002.327,A,3500.0,S,13830.0,E,5.0,15.0,181023,,,*06",
    "utc": 142002.327,
    "latitude": 3500.0,
    "latitude_direction": "S",
    "longitude": 13830.0,
    "longitude_direction": "E",
    "speed": 5.0,
    "track": 15.0,
    "date": 181023,
    "day": 18,
    "month": 10,
    "year": 23
  },
  {
    "raw": "$GPRMC,142002.827,A,3500.0,S,13830.0,E,5.0,15.0,181023,,,*0D",
    "utc": 142002.827,
    "latitude": 3500.0,
    "latitude_direction": "S",
    "longitude": 13830.0,
    "longitude_direction": "E",
    "speed": 5.0,
    "track": 15.0,
    "date": 181023,
    "day": 18,
    "month": 10,
    "year": 23
  },
  {
    "raw": "$GPRMC,142003.327,A,3500.0,S,13830.0,E,5.0,15.0,181023,,,*07",
    "utc": 142003.327,
    "latitude": 3500.0,
    "latitude_direction": "S",
    "longitude": 13830.0,
    "longitude_direction": "E",
    "speed": 5.0,
    "track": 15.0,
    "date": 181023,
    "day": 18,
    "month": 10,
    "year": 23
  },
  {
    "raw": "$GPRMC,142003.827,A,3500.0,S,13830.0,E,5.0,15.0,181023,,,*0C",
    "utc": 142003.827,
    "latitude": 3500.0,
    "latitude_direction": "S",
    "longitude": 13830.0,
    "longitude_direction": "E",
    "speed": 5.0,
    "track": 15.0,
    "date": 181023,
    "day": 18,
    "month": 10,
    "year": 23
  },
  {
    "raw": "$GPRMC,142004.327,A,3500.0,S,13830.0,E,5.0,15.0,181023,,,*00",
    "utc": 142004.327,
    "latitude": 3500.0,
    "latitude_direction": "S",
    "longitude": 13830.0,
    "longitude_direction": "E",
    "speed": 5.0,
    "track": 15.0,
    "date": 181023,
    "day": 18,
    "month": 10,
    "year": 23
  },
  {
    "raw": "$GPRMC,142004.827,A,3500.0,S,13830.0,E,5.0,15.0,181023,,,*0B",
    "utc": 142004.827,
    "latitude": 3500.0,
    "latitude_direction": "S",
    "longitude": 13830.0,
    "longitude_direction": "E",
    "speed": 5.0,
    "track": 15.0,
    "date": 181023,
    "day": 18,
    "month": 10,
    "year": 23
  },
  {
    "raw": "$GPRMC,142005.327,A,3500.0,S,13830.0,E,5.0,15.0,181023,,,*01",
    "utc": 142005.327,
    "latitude": 3500.0,
    "latitude_direction": "S",
    "longitude": 13830.0,
    "longitude_direction": "E",
    "speed": 5.0,
    "track": 15.0,
    "date": 181023,
    "day": 18,
    "month": 10,
    "year": 23
  },
  {
    "raw": "$GPRMC,142005.827,A,3500.0,S,13830.0,E,5.0,15.0,181023,,,*0A",
    "utc": 142005.827,
    "latitude": 3500.0,
    "latitude_direction": "S",
    "longitude": 13830.0,
    "longitude_direction": "E",
    "speed": 5.0,
    "track": 15.0,
    "date": 181023,
    "day": 18,
    "month": 10,
    "year": 23
  },
  {
    "raw": "$GPRMC,142006.327,A,3500.0,S,13830.0,E,5.0,15.0,181023,,,*02",
    "utc": 142006.327,
    "latitude": 3500.0,
    "latitude_direction": "S",
    "longitude": 13830.0,
    "longitude_direction": "E",
    "speed": 5.0,
    "track": 15.0,
    "date": 181023,
    "day": 18,
    "month": 10,
    "year": 23
  },
  {
    "raw": "$GPRMC,142006.827,A,3500.0,S,13830.0,E,5.0,15.0,181023,,,*09",
    "utc": 142006.827,
    "latitude": 3500.0,
    "latitude_direction": "S",
    "longitude": 13830.0,
    "longitude_direction": "E",
    "speed": 5.0,
    "track": 15.0,
    "date": 181023,
    "day": 18,
    "month": 10,
    "year": 23
  },
  {
    "raw": "$GPRMC,142007.327,A,3500.0,S,13830.0,E,5.0,15.0,181023,,,*03",
    "utc": 142007.327,
    "latitude": 3500.0,
    "latitude_direction": "S",
    "longitude": 13830.0,
    "longitude_direction": "E",
    "speed": 5.0,
    "track": 15.0,
    "date": 181023,
    "day": 18,
    "month": 10,
    "year": 23
  },
  {
    "raw": "$GPRMC,142007.827,A,3500.0,S,13830.0,E,5.0,15.0,181023,,,*08",
    "utc": 142007.827,
    "latitude": 3500.0,
    "latitude_direction": "S",
    "longitude": 13830.0,
    "longitude_direction": "E",
    "speed": 5.0,
    "track": 15.0,
    "date": 181023,
    "day": 18,
    "month": 10,
    "year": 23
  },
  {
    "raw": "$GPRMC,142008.327,A,3500.0,S,13830.0,E,5.0,15.0,181023,,,*0C",
    "utc": 142008.327,
    "latitude": 3500.0,
    "latitude_direction": "S",
    "longitude": 13830.0,
    "longitude_direction": "E",
    "speed": 5.0,
    "track": 15.0,
    "date": 181023,
    "day": 18,
    "month": 10,
    "year": 23
  },
  {
    "raw": "$GPRMC,142008.827,A,3500.0,S,13830.0,E,5.0,15.0,181023,,,*07",
    "utc": 142008.827,
    "latitude": 3500.0,
    "latitude_direction": "S",
    "longitude": 13830.0,
    "longitude_direction": "E",
    "speed": 5.0,
    "track": 15.0,
    "date": 181023,
    "day": 18,
    "month": 10,
    "year": 23
  },
  {
    "raw": "$GPRMC,142009.327,A,3500.0,S,13830.0,E,5.0,15.0,181023,,,*0D",
    "utc": 142009.327,
    "latitude": 3500.0,
    "latitude_direction": "S",
    "longitude": 13830.0,
    "longitude_direction": "E",
    "speed": 5.0,
    "track": 15.0,
    "date": 181023,
    "day": 18,
    "month": 10,
    "year": 23
  },
  {
    "raw": "$GPRMC,142009.827,A,3500.0,S,13830.0,E,5.0,15.0,181023,,,*06",
    "utc": 142009.827,
    "latitude": 3500.0,
    "latitude_direction": "S",
    "longitude": 13830.0,
    "longitude_direction": "E",
    "speed": 5.0,
    "track": 15.0,
    "date": 181023,
    "day": 18,
    "month": 10,
    "year": 23
  },
  {
    "raw": "$GPRMC,142010.327,A,3500.0,S,13830.0,E,5.0,15.0,181023,,,*05",
    "utc": 142010.327,
    "latitude": 3500.0,
    "latitude_direction": "S",
    "longitude": 13830.0,
    "longitude_direction": "E",
    "speed": 5.0,
    "track": 15.0,
    "date": 181023,
    "day": 18,
    "month": 10,
    "year": 23
  },
  {
    "raw": "$GPRMC,142010.827,A,3500.0,S,13830.0,E,5.0,15.0,181023,,,*0E",
    "utc": 142010.827,
    "latitude": 3500.0,
    "latitude_direction": "S",
    "longitude": 13830.0,
    "longitude_direction": "E",
    "speed": 5.0,
    "track": 15.0,
    "date": 181023,
    "day": 18,
    "month": 10,
    "year": 23
  },
  {
    "raw": "$GPRMC,142011.327,A,3500.0,S,13830.0,E,5.0,15.0,181023,,,*04",
    "utc": 142011.327,
    "latitude": 3500.0,
    "latitude_direction": "S",
    "longitude": 13830.0,
    "longitude_direction": "E",
    "speed": 5.0,
    "track": 15.0,
    "date": 181023,
    "day": 18,
    "month": 10,
    "year": 23
  },
  {
    "raw": "$GPRMC,142011.827,A,3500.0,S,13830.0,E,5.0,15.0,181023,,,*0F",
    "utc": 142011.827,
    "latitude": 3500.0,
    "latitude_direction": "S",
    "longitude": 13830.0,
    "longitude_direction": "E",
    "speed": 5.0,
    "track": 15.0,
    "date": 181023,
    "day": 18,
    "month": 10,
    "year": 23
  },
  {
    "raw": "$GPRMC,142012.327,A,3500.0,S,13830.0,E,5.0,15.0,181023,,,*07",
    "utc": 142012.327,
    "latitude": 3500.0,
    "latitude_direction": "S",
    "longitude": 13830.0,
    "longitude_direction": "E",
    "speed": 5.0,
    "track": 15.0,
    "date": 181023,
    "day": 18,
    "month": 10,
    "year": 23
  },
  {
    "raw": "$GPRMC,142012.827,A,3500.0,S,13830.0,E,5.0,15.0,181023,,,*0C",
    "utc": 142012.827,
    "latitude": 3500.0,
    "latitude_direction": "S",
    "longitude": 13830.0,
    "longitude_direction": "E",
    "speed": 5.0,
    "track": 15.0,
    "date": 181023,
    "day": 18,
    "month": 10,
    "year": 23
  },
  {
    "raw": "$GPRMC,142013.327,A,3500.0,S,13830.0,E,5.0,15.0,181023,,,*06",
    "utc": 142013.327,
    "latitude": 3500.0,
    "latitude_direction": "S",
    "longitude": 13830.0,
    "longitude_direction": "E",
    "speed": 5.0,
    "track": 15.0,
    "date": 181023,
    "day": 18,
    "month": 10,
    "year": 23
  },
  {
    "raw": "$GPRMC,142013.827,A,3500.0,S,13830.0,E,5.0,15.0,181023,,,*0D",
    "utc": 142013.827,
    "latitude": 3500.0,
    "latitude_direction": "S",
    "longitude": 13830.0,
    "longitude_direction": "E",
    "speed": 5.0,
    "track": 15.0,
    "date": 181023,
    "day": 18,
    "month": 10,
    "year": 23
  },
  {
    "raw": "$GPRMC,142014.327,A,3500.0,S,13830.0,E,5.0,15.0,181023,,,*01",
    "utc": 142014.327,
    "latitude": 3500.0,
    "latitude_direction": "S",
    "longitude": 13830.0,
    "longitude_direction": "E",
    "speed": 5.0,
    "track": 15.0,
    "date": 181023,
    "day": 18,
    "month": 10,
    "year": 23
  },
  {
    "raw": "$GPRMC,142014.827,A,3500.0,S,13830.0,E,5.0,15.0,181023,,,*0A",
    "utc": 142014.827,
    "latitude": 3500.0,
    "latitude_direction": "S",
    "longitude": 13830.0,
    "longitude_direction": "E",
    "speed": 5.0,
    "track": 15.0,
    "date": 181023,
    "day": 18,
    "month": 10,
    "year": 23
  },
  {
    "raw": "$GPRMC,142015.327,A,3500.0,S,13830.0,E,5.0,15.0,181023,,,*00",
    "utc": 142015.327,
    "latitude": 3500.0,
    "latitude_direction": "S",
    "longitude": 13830.0,
    "longitude_direction": "E",
    "speed": 5.0,
    "track": 15.0,
    "date": 181023,
    "day": 18,
    "month": 10,
    "year": 23
  },
  {
    "raw": "$GPRMC,142015.827,A,3500.0,S,13830.0,E,5.0,15.0,181023,,,*0B",
    "utc": 142015.827,
    "latitude": 3500.0,
    "latitude_direction": "S",
    "longitude": 13830.0,
    "longitude_direction": "E",
    "speed": 5.0,
    "track": 15.0,
    "date": 181023,
    "day": 18,
    "month": 10,
    "year": 23
  },
  {
    "raw": "$GPRMC,142016.327,A,3500.0,S,13830.0,E,5.0,15.0,181023,,,*03",
    "utc": 142016.327,
    "latitude": 3500.0,
    "latitude_direction": "S",
    "longitude": 13830.0,
    "longitude_direction": "E",
    "speed": 5.0,
    "track": 15.0,
    "date": 181023,
    "day": 18,
    "month": 10,
    "year": 23
  },
  {
    "raw": "$GPRMC,142016.827,A,3500.0,S,13830.0,E,5.0,15.0,181023,,,*08",
    "utc": 142016.827,
    "latitude": 3500.0,
    "latitude_direction": "S",
    "longitude": 13830.0,
    "longitude_direction": "E",
    "speed": 5.0,
    "track": 15.0,
    "date": 181023,
    "day": 18,
    "month": 10,
    "year": 23
  },
  {
    "raw": "$GPRMC,142017.327,A,3500.0,S,13830.0,E,5.0,15.0,181023,,,*02",
    "utc": 142017.327,
    "latitude": 3500.0,
    "latitude_direction": "S",
    "longitude": 13830.0,
    "longitude_direction": "E",
    "speed": 5.0,
    "track": 15.0,
    "date": 181023,
    "day": 18,
    "month": 10,
    "year": 23
  },
  {
    "raw": "$GPRMC,142017.827,A,3500.0,S,13830.0,E,5.0,15.0,181023,,,*09",
    "utc": 142017.827,
    "latitude": 3500.0,
    "latitude_direction": "S",
    "longitude": 13830.0,
    "longitude_direction": "E",
    "speed": 5.0,
    "track": 15.0,
    "date": 181023,
    "day": 18,
    "month": 10,
    "year": 23
  },
  {
    "raw": "$GPRMC,142018.327,A,3500.0,S,13830.0,E,5.0,15.0,181023,,,*0D",
    "utc": 142018.327,
    "latitude": 3500.0,
    "latitude_direction": "S",
    "longitude": 13830.0,
    "longitude_direction": "E",
    "speed": 5.0,
    "track": 15.0,
    "date": 181023,
    "day": 18,
    "month": 10,
    "year": 23
  },
  {
    "raw": "$GPRMC,142018.827,A,3500.0,S,13830.0,E,5.0,15.0,181023,,,*06",
    "utc": 142018.827,
    "latitude": 3500.0,
    "latitude_direction": "S",
    "longitude": 13830.0,
    "longitude_direction": "E",
    "speed": 5.0,
    "track": 15.0,
    "date": 181023,
    "day": 18,
    "month": 10,
    "year": 23
  },
  {
    "raw": "$GPRMC,142019.327,A,3500.0,S,13830.0,E,5.0,15.0,181023,,,*0C",
    "utc": 142019.327,
    "latitude": 3500.0,
    "latitude_direction": "S",
    "longitude": 13830.0,
    "longitude_direction": "E",
    "speed": 5.0,
    "track": 15.0,
    "date": 181023,
    "day": 18,
    "month": 10,
    "year": 23
  },
  {
    "raw": "$GPRMC,142019.827,A,3500.0,S,13830.0,E,5.0,15.0,181023,,,*07",
    "utc": 142019.827,
    "latitude": 3500.0,
    "latitude_direction": "S",
    "longitude": 13830.0,
    "longitude_direction": "E",
    "speed": 5.0,
    "track": 15.0,
    "date": 181023,
    "day": 18,
    "month": 10,
    "year": 23
  },
  {
    "raw": "$GPRMC,142020.327,A,3500.0,S,13830.0,E,5.0,15.0,181023,,,*06",
    "utc": 142020.327,
    "latitude": 3500.0,
    "latitude_direction": "S",
    "longitude": 13830.0,
    "longitude_direction": "E",
    "speed": 5.0,
    "track": 15.0,
    "date": 181023,
    "day": 18,
    "month": 10,
    "year": 23
  },
  {
    "raw": "$GPRMC,142020.827,A,3500.0,S,13830.0,E,5.0,15.0,181023,,,*0D",
    "utc": 142020.827,
    "latitude": 3500.0,
    "latitude_direction": "S",
    "longitude": 13830.0,
    "longitude_direction": "E",
    "speed": 5.0,
    "track": 15.0,
    "date": 181023,
    "day": 18,
    "month": 10,
    "year": 23
  },
  {
    "raw": "$GPRMC,142021.327,A,3500.0,S,13830.0,E,5.0,15.0,181023,,,*07",
    "utc": 142021.327,
    "latitude": 3500.0,
    "latitude_direction": "S",
    "longitude": 13830.0,
    "longitude_direction": "E",
    "speed": 5.0,
    "track": 15.0,
    "date": 181023,
    "day": 18,
    "month": 10,
    "year": 23
  },
  {
    "raw": "$GPRMC,142021.827,A,3500.0,S,13830.0,E,5.0,15.0,181023,,,*0C",
    "utc": 142021.827,
    "latitude": 3500.0,
    "latitude_direction": "S",
    "longitude": 13830.0,
    "longitude_direction": "E",
    "speed": 5.0,
    "track": 15.0,
    "date": 181023,
    "day": 18,
    "month": 10,
    "year": 23
  },
  {
    "raw": "$GPRMC,142022.327,A,3500.0,S,13830.0,E,5.0,15.0,181023,,,*04",
    "utc": 142022.327,
    "latitude": 3500.0,
    "latitude_direction": "S",
    "longitude": 13830.0,
    "longitude_direction": "E",
    "speed": 5.0,
    "track": 15.0,
    "date": 181023,
    "day": 18,
    "month": 10,
    "year": 23
  },
  {
    "raw": "$GPRMC,142022.827,A,3500.0,S,13830.0,E,5.0,15.0,181023,,,*0F",
    "utc": 142022.827,
    "latitude": 3500.0,
    "latitude_direction": "S",
    "longitude": 13830.0,
    "longitude_direction": "E",
    "speed": 5.0,
    "track": 15.0,
    "date": 181023,
    "day": 18,
    "month": 10,
    "year": 23
  },
  {
    "raw": "$GPRMC,142023.327,A,3500.0,S,13830.0,E,5.0,15.0,181023,,,*05",
    "utc": 142023.327,
    "latitude": 3500.0,
    "latitude_direction": "S",
    "longitude": 13830.0,
    "longitude_direction": "E",
    "speed": 5.0,
    "track": 15.0,
    "date": 181023,
    "day": 18,
    "month": 10,
    "year": 23
  },
  {
    "raw": "$GPRMC,142023.827,A,3500.0,S,13830.0,E,5.0,15.0,181023,,,*0E",
    "utc": 142023.827,
    "latitude": 3500.0,
    "latitude_direction": "S",
    "longitude": 13830.0,
    "longitude_direction": "E",
    "speed": 5.0,
    "track": 15.0,
    "date": 181023,
    "day": 18,
    "month": 10,
    "year": 23
  },
  {
    "raw": "$GPRMC,142024.327,A,3500.0,S,13830.0,E,5.0,15.0,181023,,,*02",
    "utc": 142024.327,
    "latitude": 3500.0,
    "latitude_direction": "S",
    "longitude": 13830.0,
    "longitude_direction": "E",
    "speed": 5.0,
    "track": 15.0,
    "date": 181023,
    "day": 18,
    "month": 10,
    "year": 23
  },
  {
    "raw": "$GPRMC,142024.827,A,3500.0,S,13830.0,E,5.0,15.0,181023,,,*09",
    "utc": 142024.827,
    "latitude": 3500.0,
    "latitude_direction": "S",
    "longitude": 13830.0,
    "longitude_direction": "E",
    "speed": 5.0,
    "track": 15.0,
    "date": 181023,
    "day": 18,
    "month": 10,
    "year": 23
  },
  {
    "raw": "$GPRMC,142025.327,A,3500.0,S,13830.0,E,5.0,15.0,181023,,,*03",
    "utc": 142025.327,
    "latitude": 3500.0,
    "latitude_direction": "S",
    "longitude": 13830.0,
    "longitude_direction": "E",
    "speed": 5.0,
    "track": 15.0,
    "date": 181023,
    "day": 18,
    "month": 10,
    "year": 23
  },
  {
    "raw": "$GPRMC,142025.827,A,3500.0,S,13830.0,E,5.0,15.0,181023,,,*08",
    "utc": 142025.827,
    "latitude": 3500.0,
    "latitude_direction": "S",
    "longitude": 13830.0,
    "longitude_direction": "E",
    "speed": 5.0,
    "track": 15.0,
    "date": 181023,
    "day": 18,
    "month": 10,
    "year": 23
  },
  {
    "raw": "$GPRMC,142026.327,A,3500.0,S,13830.0,E,5.0,15.0,181023,,,*00",
    "utc": 142026.327,
    "latitude": 3500.0,
    "latitude_direction": "S",
    "longitude": 13830.0,
    "longitude_direction": "E",
    "speed": 5.0,
    "track": 15.0,
    "date": 181023,
    "day": 18,
    "month": 10,
    "year": 23
  },
  {
    "raw": "$GPRMC,142026.827,A,3500.0,S,13830.0,E,5.0,15.0,181023,,,*0B",
    "utc": 142026.827,
    "latitude": 3500.0,
    "latitude_direction": "S",
    "longitude": 13830.0,
    "longitude_direction": "E",
    "speed": 5.0,
    "track": 15.0,
    "date": 181023,
    "day": 18,
    "month": 10,
    "year": 23
  },
  {
    "raw": "$GPRMC,142027.327,A,3500.0,S,13830.0,E,5.0,15.0,181023,,,*01",
    "utc": 142027.327,
    "latitude": 3500.0,
    "latitude_direction": "S",
    "longitude": 13830.0,
    "longitude_direction": "E",
    "speed": 5.0,
    "track": 15.0,
    "date": 181023,
    "day": 18,
    "month": 10,
    "year": 23
  },
  {
    "raw": "$GPRMC,142027.827,A,3500.0,S,13830.0,E,5.0,15.0,181023,,,*0A",
    "utc": 142027.827,
    "latitude": 3500.0,
    "latitude_direction": "S",
    "longitude": 13830.0,
    "longitude_direction": "E",
    "speed": 5.0,
    "track": 15.0,
    "date": 181023,
    "day": 18,
    "month": 10,
    "year": 23
  },
  {
    "raw": "$GPRMC,142028.327,A,3500.0,S,13830.0,E,5.0,15.0,181023,,,*0E",
    "utc": 142028.327,
    "latitude": 3500.0,
    "latitude_direction": "S",
    "longitude": 13830.0,
    "longitude_direction": "E",
    "speed": 5.0,
    "track": 15.0,
    "date": 181023,
    "day": 18,
    "month": 10,
    "year": 23
  },
  {
    "raw": "$GPRMC,142028.827,A,3500.0,S,13830.0,E,5.0,15.0,181023,,,*05",
    "utc": 142028.827,
    "latitude": 3500.0,
    "latitude_direction": "S",
    "longitude": 13830.0,
    "longitude_direction": "E",
    "speed": 5.0,
    "track": 15.0,
    "date": 181023,
    "day": 18,
    "month": 10,
    "year": 23
  },
  {
    "raw": "$GPRMC,142029.327,A,3500.0,S,13830.0,E,5.0,15.0,181023,,,*0F",
    "utc": 142029.327,
    "latitude": 3500.0,
    "latitude_direction": "S",
    "longitude": 13830.0,
    "longitude_direction": "E",
    "speed": 5.0,
    "track": 15.0,
    "date": 181023,
    "day": 18,
    "month": 10,
    "year": 23
  },
  {
    "raw": "$GPRMC,142029.827,A,3500.0,S,13830.0,E,5.0,15.0,181023,,,*04",
    "utc": 142029.827,
    "latitude": 3500.0,
    "latitude_direction": "S",
    "longitude": 13830.0,
    "longitude_direction": "E",
    "speed": 5.0,
    "track": 15.0,
    "date": 181023,
    "day": 18,
    "month": 10,
    "year": 23
  },
  {
    "raw": "$GPRMC,142030.327,A,3500.0,S,13830.0,E,5.0,15.0,181023,,,*07",
    "utc": 142030.327,
    "latitude": 3500.0,
    "latitude_direction": "S",
    "longitude": 13830.0,
    "longitude_direction": "E",
    "speed": 5.0,
    "track": 15.0,
    "date": 181023,
    "day": 18,
    "month": 10,
    "year": 23
  },
  {
    "raw": "$GPRMC,142030.827,A,3500.0,S,13830.0,E,5.0,15.0,181023,,,*0C",
    "utc": 142030.827,
    "latitude": 3500.0,
    "latitude_direction": "S",
    "longitude": 13830.0,
    "longitude_direction": "E",
    "speed": 5.0,
    "track": 15.0,
    "date": 181023,
    "day": 18,
    "month": 10,
    "year": 23
  },
  {
    "raw": "$GPRMC,142031.327,A,3500.0,S,13830.0,E,5.0,15.0,181023,,,*06",
    "utc": 142031.327,
    "latitude": 3500.0,
    "latitude_direction": "S",
    "longitude": 13830.0,
    "longitude_direction": "E",
    "speed": 5.0,
    "track": 15.0,
    "date": 181023,
    "day": 18,
    "month": 10,
    "year": 23
  },
  {
    "raw": "$GPRMC,142031.827,A,3500.0,S,13830.0,E,5.0,15.0,181023,,,*0D",
    "utc": 142031.827,
    "latitude": 3500.0,
    "latitude_direction": "S",
    "longitude": 13830.0,
    "longitude_direction": "E",
    "speed": 5.0,
    "track": 15.0,
    "date": 181023,
    "day": 18,
    "month": 10,
    "year": 23
  },
  {
    "raw": "$GPRMC,142032.327,A,3500.0,S,13830.0,E,5.0,15.0,181023,,,*05",
    "utc": 142032.327,
    "latitude": 3500.0,
    "latitude_direction": "S",
    "longitude": 13830.0,
    "longitude_direction": "E",
    "speed": 5.0,
    "track": 15.0,
    "date": 181023,
    "day": 18,
    "month": 10,
    "year": 23
  },
  {
    "raw": "$GPRMC,142032.827,A,3500.0,S,13830.0,E,5.0,15.0,181023,,,*0E",
    "utc": 142032.827,
    "latitude": 3500.0,
    "latitude_direction": "S",
    "longitude": 13830.0,
    "longitude_direction": "E",
    "speed": 5.0,
    "track": 15.0,
    "date": 181023,
    "day": 18,
    "month": 10,
    "year": 23
  },
  {
    "raw": "$GPRMC,142033.327,A,3500.0,S,13830.0,E,5.0,15.0,181023,,,*04",
    "utc": 142033.327,
    "latitude": 3500.0,
    "latitude_direction": "S",
    "longitude": 13830.0,
    "longitude_direction": "E",
    "speed": 5.0,
    "track": 15.0,
    "date": 181023,
    "day": 18,
    "month": 10,
    "year": 23
  },
  {
    "raw": "$GPRMC,142033.827,A,3500.0,S,13830.0,E,5.0,15.0,181023,,,*0F",
    "utc": 142033.827,
    "latitude": 3500.0,
    "latitude_direction": "S",
    "longitude": 13830.0,
    "longitude_direction": "E",
    "speed": 5.0,
    "track": 15.0,
    "date": 181023,
    "day": 18,
    "month": 10,
    "year": 23
  },
  {
    "raw": "$GPRMC,142034.327,A,3500.0,S,13830.0,E,5.0,15.0,181023,,,*03",
    "utc": 142034.327,
    "latitude": 3500.0,
    "latitude_direction": "S",
    "longitude": 13830.0,
    "longitude_direction": "E",
    "speed": 5.0,
    "track": 15.0,
    "date": 181023,
    "day": 18,
    "month": 10,
    "year": 23
  },
  {
    "raw": "$GPRMC,142034.827,A,3500.0,S,13830.0,E,5.0,15.0,181023,,,*08",
    "utc": 142034.827,
    "latitude": 3500.0,
    "latitude_direction": "S",
    "longitude": 13830.0,
    "longitude_direction": "E",
    "speed": 5.0,
    "track": 15.0,
    "date": 181023,
    "day": 18,
    "month": 10,
    "year": 23
  },
  {
    "raw": "$GPRMC,142035.327,A,3500.0,S,13830.0,E,5.0,15.0,181023,,,*02",
    "utc": 142035.327,
    "latitude": 3500.0,
    "latitude_direction": "S",
    "longitude": 13830.0,
    "longitude_direction": "E",
    "speed": 5.0,
    "track": 15.0,
    "date": 181023,
    "day": 18,
    "month": 10,
    "year": 23
  },
  {
    "raw": "$GPRMC,142035.827,A,3500.0,S,13830.0,E,5.0,15.0,181023,,,*09",
    "utc": 142035.827,
    "latitude": 3500.0,
    "latitude_direction": "S",
    "longitude": 13830.0,
    "longitude_direction": "E",
    "speed": 5.0,
    "track": 15.0,
    "date": 181023,
    "day": 18,
    "month": 10,
    "year": 23
  },
  {
    "raw": "$GPRMC,142036.327,A,3500.0,S,13830.0,E,5.0,15.0,181023,,,*01",
    "utc": 142036.327,
    "latitude": 3500.0,
    "latitude_direction": "S",
    "longitude": 13830.0,
    "longitude_direction": "E",
    "speed": 5.0,
    "track": 15.0,
    "date": 181023,
    "day": 18,
    "month": 10,
    "year": 23
  },
  {
    "raw": "$GPRMC,142036.827,A,3500.0,S,13830.0,E,5.0,15.0,181023,,,*0A",
    "utc": 142036.827,
    "latitude": 3500.0,
    "latitude_direction": "S",
    "longitude": 13830.0,
    "longitude_direction": "E",
    "speed": 5.0,
    "track": 15.0,
    "date": 181023,
    "day": 18,
    "month": 10,
    "year": 23
  },
  {
    "raw": "$GPRMC,142037.327,A,3500.0,S,13830.0,E,5.0,15.0,181023,,,*00",
    "utc": 142037.327,
    "latitude": 3500.0,
    "latitude_direction": "S",
    "longitude": 13830.0,
    "longitude_direction": "E",
    "speed": 5.0,
    "track": 15.0,
    "date": 181023,
    "day": 18,
    "month": 10,
    "year": 23
  },
  {
    "raw": "$GPRMC,142037.827,A,3500.0,S,13830.0,E,5.0,15.0,181023,,,*0B",
    "utc": 142037.827,
    "latitude": 3500.0,
    "latitude_direction": "S",
    "longitude": 13830.0,
    "longitude_direction": "E",
    "speed": 5.0,
    "track": 15.0,
    "date": 181023,
    "day": 18,
    "month": 10,
    "year": 23
  },
  {
    "raw": "$GPRMC,142038.327,A,3500.0,S,13830.0,E,5.0,15.0,181023,,,*0F",
    "utc": 142038.327,
    "latitude": 3500.0,
    "latitude_direction": "S",
    "longitude": 13830.0,
    "longitude_direction": "E",
    "speed": 5.0,
    "track": 15.0,
    "date": 181023,
    "day": 18,
    "month": 10,
    "year": 23
  },
  {
    "raw": "$GPRMC,142038.827,A,3500.0,S,13830.0,E,5.0,15.0,181023,,,*04",
    "utc": 142038.827,
    "latitude": 3500.0,
    "latitude_direction": "S",
    "longitude": 13830.0,
    "longitude_direction": "E",
    "speed": 5.0,
    "track": 15.0,
    "date": 181023,
    "day": 18,
    "month": 10,
    "year": 23
  },
  {
    "raw": "$GPRMC,142039.327,A,3500.0,S,13830.0,E,5.0,15.0,181023,,,*0E",
    "utc": 142039.327,
    "latitude": 3500.0,
    "latitude_direction": "S",
    "longitude": 13830.0,
    "longitude_direction": "E",
    "speed": 5.0,
    "track": 15.0,
    "date": 181023,
    "day": 18,
    "month": 10,
    "year": 23
  },
  {
    "raw": "$GPRMC,142039.827,A,3500.0,S,13830.0,E,5.0,15.0,181023,,,*05",
    "utc": 142039.827,
    "latitude": 3500.0,
    "latitude_direction": "S",
    "longitude": 13830.0,
    "longitude_direction": "E",
    "speed": 5.0,
    "track": 15.0,
    "date": 181023,
    "day": 18,
    "month": 10,
    "year": 23
  },
  {
    "raw": "$GPRMC,142040.327,A,3500.0,S,13830.0,E,5.0,15.0,181023,,,*00",
    "utc": 142040.327,
    "latitude": 3500.0,
    "latitude_direction": "S",
    "longitude": 13830.0,
    "longitude_direction": "E",
    "speed": 5.0,
    "track": 15.0,
    "date": 181023,
    "day": 18,
    "month": 10,
    "year": 23
  },
  {
    "raw": "$GPRMC,142040.827,A,3500.0,S,13830.0,E,5.0,15.0,181023,,,*0B",
    "utc": 142040.827,
    "latitude": 3500.0,
    "latitude_direction": "S",
    "longitude": 13830.0,
    "longitude_direction": "E",
    "speed": 5.0,
    "track": 15.0,
    "date": 181023,
    "day": 18,
    "month": 10,
    "year": 23
  },
  {
    "raw": "$GPRMC,142041.327,A,3500.0,S,13830.0,E,5.0,15.0,181023,,,*01",
    "utc": 142041.327,
    "latitude": 3500.0,
    "latitude_direction": "S",
    "longitude": 13830.0,
    "longitude_direction": "E",
    "speed": 5.0,
    "track": 15.0,
    "date": 181023,
    "day": 18,
    "month": 10,
    "year": 23
  },
  {
    "raw": "$GPRMC,142041.827,A,3500.0,S,13830.0,E,5.0,15.0,181023,,,*0A",
    "utc": 142041.827,
    "latitude": 3500.0,
    "latitude_direction": "S",
    "longitude": 13830.0,
    "longitude_direction": "E",
    "speed": 5.0,
    "track": 15.0,
    "date": 181023,
    "day": 18,
    "month": 10,
    "year": 23
  },
  {
    "raw": "$GPRMC,142042.327,A,3500.0,S,13830.0,E,5.0,15.0,181023,,,*02",
    "utc": 142042.327,
    "latitude": 3500.0,
    "latitude_direction": "S",
    "longitude": 13830.0,
    "longitude_direction": "E",
    "speed": 5.0,
    "track": 15.0,
    "date": 181023,
    "day": 18,
    "month": 10,
    "year": 23
  },
  {
    "raw": "$GPRMC,142042.827,A,3500.0,S,13830.0,E,5.0,15.0,181023,,,*09",
    "utc": 142042.827,
    "latitude": 3500.0,
    "latitude_direction": "S",
    "longitude": 13830.0,
    "longitude_direction": "E",
    "speed": 5.0,
    "track": 15.0,
    "date": 181023,
    "day": 18,
    "month": 10,
    "year": 23
  },
  {
    "raw": "$GPRMC,142043.327,A,3500.0,S,13830.0,E,5.0,15.0,181023,,,*03",
    "utc": 142043.327,
    "latitude": 3500.0,
    "latitude_direction": "S",
    "longitude": 13830.0,
    "longitude_direction": "E",
    "speed": 5.0,
    "track": 15.0,
    "date": 181023,
    "day": 18,
    "month": 10,
    "year": 23
  },
  {
    "raw": "$GPRMC,142043.827,A,3500.0,S,13830.0,E,5.0,15.0,181023,,,*08",
    "utc": 142043.827,
    "latitude": 3500.0,
    "latitude_direction": "S",
    "longitude": 13830.0,
    "longitude_direction": "E",
    "speed": 5.0,
    "track": 15.0,
    "date": 181023,
    "day": 18,
    "month": 10,
    "year": 23
  },
  {
    "raw": "$GPRMC,142044.327,A,3500.0,S,13830.0,E,5.0,15.0,181023,,,*04",
    "utc": 142044.327,
    "latitude": 3500.0,
    "latitude_direction": "S",
    "longitude": 13830.0,
    "longitude_direction": "E",
    "speed": 5.0,
    "track": 15.0,
    "date": 181023,
    "day": 18,
    "month": 10,
    "year": 23
  },
  {
    "raw": "$GPRMC,142044.827,A,3500.0,S,13830.0,E,5.0,15.0,181023,,,*0F",
    "utc": 142044.827,
    "latitude": 3500.0,
    "latitude_direction": "S",
    "longitude": 13830.0,
    "longitude_direction": "E",
    "speed": 5.0,
    "track": 15.0,
    "date": 181023,
    "day": 18,
    "month": 10,
    "year": 23
  },
  {
    "raw": "$GPRMC,142045.327,A,3500.0,S,13830.0,E,5.0,15.0,181023,,,*05",
    "utc": 142045.327,
    "latitude": 3500.0,
    "latitude_direction": "S",
    "longitude": 13830.0,
    "longitude_direction": "E",
    "speed": 5.0,
    "track": 15.0,
    "date": 181023,
    "day": 18,
    "month": 10,
    "year": 23
  },
  {
    "raw": "$GPRMC,142045.827,A,3500.0,S,13830.0,E,5.0,15.0,181023,,,*0E",
    "utc": 142045.827,
    "latitude": 3500.0,
    "latitude_direction": "S",
    "longitude": 13830.0,
    "longitude_direction": "E",
    "speed": 5.0,
    "track": 15.0,
    "date": 181023,
    "day": 18,
    "month": 10,
    "year": 23
  },
  {
    "raw": "$GPRMC,142046.327,A,3500.0,S,13830.0,E,5.0,15.0,181023,,,*06",
    "utc": 142046.327,
    "latitude": 3500.0,
    "latitude_direction": "S",
    "longitude": 13830.0,
    "longitude_direction": "E",
    "speed": 5.0,
    "track": 15.0,
    "date": 181023,
    "day": 18,
    "month": 10,
    "year": 23
  },
  {
    "raw": "$GPRMC,142046.827,A,3500.0,S,13830.0,E,5.0,15.0,181023,,,*0D",
    "utc": 142046.827,
    "latitude": 3500.0,
    "latitude_direction": "S",
    "longitude": 13830.0,
    "longitude_direction": "E",
    "speed": 5.0,
    "track": 15.0,
    "date": 181023,
    "day": 18,
    "month": 10,
    "year": 23
  },
  {
    "raw": "$GPRMC,142047.327,A,3500.0,S,13830.0,E,5.0,15.0,181023,,,*07",
    "utc": 142047.327,
    "latitude": 3500.0,
    "latitude_direction": "S",
    "longitude": 13830.0,
    "longitude_direction": "E",
    "speed": 5.0,
    "track": 15.0,
    "date": 181023,
    "day": 18,
    "month": 10,
    "year": 23
  },
  {
    "raw": "$GPRMC,142047.827,A,3500.0,S,13830.0,E,5.0,15.0,181023,,,*0C",
    "utc": 142047.827,
    "latitude": 3500.0,
    "latitude_direction": "S",
    "longitude": 13830.0,
    "longitude_direction": "E",
    "speed": 5.0,
    "track": 15.0,
    "date": 181023,
    "day": 18,
    "month": 10,
    "year": 23
  },
  {
    "raw": "$GPRMC,142048.327,A,3500.0,S,13830.0,E,5.0,15.0,181023,,,*08",
    "utc": 142048.327,
    "latitude": 3500.0,
    "latitude_direction": "S",
    "longitude": 13830.0,
    "longitude_direction": "E",
    "speed": 5.0,
    "track": 15.0,
    "date": 181023,
    "day": 18,
    "month": 10,
    "year": 23
  },
  {
    "raw": "$GPRMC,142048.827,A,3500.0,S,13830.0,E,5.0,15.0,181023,,,*03",
    "utc": 142048.827,
    "latitude": 3500.0,
    "latitude_direction": "S",
    "longitude": 13830.0,
    "longitude_direction": "E",
    "speed": 5.0,
    "track": 15.0,
    "date": 181023,
    "day": 18,
    "month": 10,
    "year": 23
  },
  {
    "raw": "$GPRMC,142049.327,A,3500.0,S,13830.0,E,5.0,15.0,181023,,,*09",
    "utc": 142049.327,
    "latitude": 3500.0,
    "latitude_direction": "S",
    "longitude": 13830.0,
    "longitude_direction": "E",
    "speed": 5.0,
    "track": 15.0,
    "date": 181023,
    "day": 18,
    "month": 10,
    "year": 23
  },
  {
    "raw": "$GPRMC,142049.827,A,3500.0,S,13830.0,E,5.0,15.0,181023,,,*02",
    "utc": 142049.827,
    "latitude": 3500.0,
    "latitude_direction": "S",
    "longitude": 13830.0,
    "longitude_direction": "E",
    "speed": 5.0,
    "track": 15.0,
    "date": 181023,
    "day": 18,
    "month": 10,
    "year": 23
  },
  {
    "raw": "$GPRMC,142050.327,A,3500.0,S,13830.0,E,5.0,15.0,181023,,,*01",
    "utc": 142050.327,
    "latitude": 3500.0,
    "latitude_direction": "S",
    "longitude": 13830.0,
    "longitude_direction": "E",
    "speed": 5.0,
    "track": 15.0,
    "date": 181023,
    "day": 18,
    "month": 10,
    "year": 23
  },
  {
    "raw": "$GPRMC,142050.827,A,3500.0,S,13830.0,E,5.0,15.0,181023,,,*0A",
    "utc": 142050.827,
    "latitude": 3500.0,
    "latitude_direction": "S",
    "longitude": 13830.0,
    "longitude_direction": "E",
    "speed": 5.0,
    "track": 15.0,
    "date": 181023,
    "day": 18,
    "month": 10,
    "year": 23
  },
  {
    "raw": "$GPRMC,142051.327,A,3500.0,S,13830.0,E,5.0,15.0,181023,,,*00",
    "utc": 142051.327,
    "latitude": 3500.0,
    "latitude_direction": "S",
    "longitude": 13830.0,
    "longitude_direction": "E",
    "speed": 5.0,
    "track": 15.0,
    "date": 181023,
    "day": 18,
    "month": 10,
    "year": 23
  },
  {
    "raw": "$GPRMC,142051.827,A,3500.0,S,13830.0,E,5.0,15.0,181023,,,*0B",
    "utc": 142051.827,
    "latitude": 3500.0,
    "latitude_direction": "S",
    "longitude": 13830.0,
    "longitude_direction": "E",
    "speed": 5.0,
    "track": 15.0,
    "date": 181023,
    "day": 18,
    "month": 10,
    "year": 23
  },
  {
    "raw": "$GPRMC,142052.327,A,3500.0,S,13830.0,E,5.0,15.0,181023,,,*03",
    "utc": 142052.327,
    "latitude": 3500.0,
    "latitude_direction": "S",
    "longitude": 13830.0,
    "longitude_direction": "E",
    "speed": 5.0,
    "track": 15.0,
    "date": 181023,
    "day": 18,
    "month": 10,
    "year": 23
  },
  {
    "raw": "$GPRMC,142052.827,A,3500.0,S,13830.0,E,5.0,15.0,181023,,,*08",
    "utc": 142052.827,
    "latitude": 3500.0,
    "latitude_direction": "S",
    "longitude": 13830.0,
    "longitude_direction": "E",
    "speed": 5.0,
    "track": 15.0,
    "date": 181023,
    "day": 18,
    "month": 10,
    "year": 23
  },
  {
    "raw": "$GPRMC,142053.327,A,3500.0,S,13830.0,E,5.0,15.0,181023,,,*02",
    "utc": 142053.327,
    "latitude": 3500.0,
    "latitude_direction": "S",
    "longitude": 13830.0,
    "longitude_direction": "E",
    "speed": 5.0,
    "track": 15.0,
    "date": 181023,
    "day": 18,
    "month": 10,
    "year": 23
  },
  {
    "raw": "$GPRMC,142053.827,A,3500.0,S,13830.0,E,5.0,15.0,181023,,,*09",
    "utc": 142053.827,
    "latitude": 3500.0,
    "latitude_direction": "S",
    "longitude": 13830.0,
    "longitude_direction": "E",
    "speed": 5.0,
    "track": 15.0,
    "date": 181023,
    "day": 18,
    "month": 10,
    "year": 23
  },
  {
    "raw": "$GPRMC,142054.327,A,3500.0,S,13830.0,E,5.0,15.0,181023,,,*05",
    "utc": 142054.327,
    "latitude": 3500.0,
    "latitude_direction": "S",
    "longitude": 13830.0,
    "longitude_direction": "E",
    "speed": 5.0,
    "track": 15.0,
    "date": 181023,
    "day": 18,
    "month": 10,
    "year": 23
  },
  {
    "raw": "$GPRMC,142054.827,A,3500.0,S,13830.0,E,5.0,15.0,181023,,,*0E",
    "utc": 142054.827,
    "latitude": 3500.0,
    "latitude_direction": "S",
    "longitude": 13830.0,
    "longitude_direction": "E",
    "speed": 5.0,
    "track": 15.0,
    "date": 181023,
    "day": 18,
    "month": 10,
    "year": 23
  },
  {
    "raw": "$GPRMC,142055.327,A,3500.0,S,13830.0,E,5.0,15.0,181023,,,*04",
    "utc": 142055.327,
    "latitude": 3500.0,
    "latitude_direction": "S",
    "longitude": 13830.0,
    "longitude_direction": "E",
    "speed": 5.0,
    "track": 15.0,
    "date": 181023,
    "day": 18,
    "month": 10,
    "year": 23
  },
  {
    "raw": "$GPRMC,142055.827,A,3500.0,S,13830.0,E,5.0,15.0,181023,,,*0F",
    "utc": 142055.827,
    "latitude": 3500.0,
    "latitude_direction": "S",
    "longitude": 13830.0,
    "longitude_direction": "E",
    "speed": 5.0,
    "track": 15.0,
    "date": 181023,
    "day": 18,
    "month": 10,
    "year": 23
  },
  {
    "raw": "$GPRMC,142056.327,A,3500.0,S,13830.0,E,5.0,15.0,181023,,,*07",
    "utc": 142056.327,
    "latitude": 3500.0,
    "latitude_direction": "S",
    "longitude": 13830.0,
    "longitude_direction": "E",
    "speed": 5.0,
    "track": 15.0,
    "date": 181023,
    "day": 18,
    "month": 10,
    "year": 23
  },
  {
    "raw": "$GPRMC,142056.827,A,3500.0,S,13830.0,E,5.0,15.0,181023,,,*0C",
    "utc": 142056.827,
    "latitude": 3500.0,
    "latitude_direction": "S",
    "longitude": 13830.0,
    "longitude_direction": "E",
    "speed": 5.0,
    "track": 15.0,
    "date": 181023,
    "day": 18,
    "month": 10,
    "year": 23
  },
  {
    "raw": "$GPRMC,142057.327,A,3500.0,S,13830.0,E,5.0,15.0,181023,,,*06",
    "utc": 142057.327,
    "latitude": 3500.0,
    "latitude_direction": "S",
    "longitude": 13830.0,
    "longitude_direction": "E",
    "speed": 5.0,
    "track": 15.0,
    "date": 181023,
    "day": 18,
    "month": 10,
    "year": 23
  },
  {
    "raw": "$GPRMC,142057.827,A,3500.0,S,13830.0,E,5.0,15.0,181023,,,*0D",
    "utc": 142057.827,
    "latitude": 3500.0,
    "latitude_direction": "S",
    "longitude": 13830.0,
    "longitude_direction": "E",
    "speed": 5.0,
    "track": 15.0,
    "date": 181023,
    "day": 18,
    "month": 10,
    "year": 23
  },
  {
    "raw": "$GPRMC,142058.327,A,3500.0,S,13830.0,E,5.0,15.0,181023,,,*09",
    "utc": 142058.327,
    "latitude": 3500.0,
    "latitude_direction": "S",
    "longitude": 13830.0,
    "longitude_direction": "E",
    "speed": 5.0,
    "track": 15.0,
    "date": 181023,
    "day": 18,
    "month": 10,
    "year": 23
  },
  {
    "raw": "$GPRMC,142058.827,A,3500.0,S,13830.0,E,5.0,15.0,181023,,,*02",
    "utc": 142058.827,
    "latitude": 3500.0,
    "latitude_direction": "S",
    "longitude": 13830.0,
    "longitude_direction": "E",
    "speed": 5.0,
    "track": 15.0,
    "date": 181023,
    "day": 18,
    "month": 10,
    "year": 23
  },
  {
    "raw": "$GPRMC,142059.327,A,3500.0,S,13830.0,E,5.0,15.0,181023,,,*08",
    "utc": 142059.327,
    "latitude": 3500.0,
    "latitude_direction": "S",
    "longitude": 13830.0,
    "longitude_direction": "E",
    "speed": 5.0,
    "track": 15.0,
    "date": 181023,
    "day": 18,
    "month": 10,
    "year": 23
  },
  {
    "raw": "$GPRMC,142059.827,A,3500.0,S,13830.0,E,5.0,15.0,181023,,,*03",
    "utc": 142059.827,
    "latitude": 3500.0,
    "latitude_direction": "S",
    "longitude": 13830.0,
    "longitude_direction": "E",
    "speed": 5.0,
    "track": 15.0,
    "date": 181023,
    "day": 18,
    "month": 10,
    "year": 23
  },
  {
    "raw": "$GPRMC,142100.327,A,3500.0,S,13830.0,E,5.0,15.0,181023,,,*05",
    "utc": 142100.327,
    "latitude": 3500.0,
    "latitude_direction": "S",
    "longitude": 13830.0,
    "longitude_direction": "E",
    "speed": 5.0,
    "track": 15.0,
    "date": 181023,
    "day": 18,
    "month": 10,
    "year": 23
  },
  {
    "raw": "$GPRMC,142100.827,A,3500.0,S,13830.0,E,5.0,15.0,181023,,,*0E",
    "utc": 142100.827,
    "latitude": 3500.0,
    "latitude_direction": "S",
    "longitude": 13830.0,
    "longitude_direction": "E",
    "speed": 5.0,
    "track": 15.0,
    "date": 181023,
    "day": 18,
    "month": 10,
    "year": 23
  },
  {
    "raw": "$GPRMC,142101.327,A,3500.0,S,13830.0,E,5.0,15.0,181023,,,*04",
    "utc": 142101.327,
    "latitude": 3500.0,
    "latitude_direction": "S",
    "longitude": 13830.0,
    "longitude_direction": "E",
    "speed": 5.0,
    "track": 15.0,
    "date": 181023,
    "day": 18,
    "month": 10,
    "year": 23
  },
  {
    "raw": "$GPRMC,142101.827,A,3500.0,S,13830.0,E,5.0,15.0,181023,,,*0F",
    "utc": 142101.827,
    "latitude": 3500.0,
    "latitude_direction": "S",
    "longitude": 13830.0,
    "longitude_direction": "E",
    "speed": 5.0,
    "track": 15.0,
    "date": 181023,
    "day": 18,
    "month": 10,
    "year": 23
  },
  {
    "raw": "$GPRMC,142102.327,A,3500.0,S,13830.0,E,5.0,15.0,181023,,,*07",
    "utc": 142102.327,
    "latitude": 3500.0,
    "latitude_direction": "S",
    "longitude": 13830.0,
    "longitude_direction": "E",
    "speed": 5.0,
    "track": 15.0,
    "date": 181023,
    "day": 18,
    "month": 10,
    "year": 23
  },
  {
    "raw": "$GPRMC,142102.827,A,3500.0,S,13830.0,E,5.0,15.0,181023,,,*0C",
    "utc": 142102.827,
    "latitude": 3500.0,
    "latitude_direction": "S",
    "longitude": 13830.0,
    "longitude_direction": "E",
    "speed": 5.0,
    "track": 15.0,
    "date": 181023,
    "day": 18,
    "month": 10,
    "year": 23
  },
  {
    "raw": "$GPRMC,142103.327,A,3500.0,S,13830.0,E,5.0,15.0,181023,,,*06",
    "utc": 142103.327,
    "latitude": 3500.0,
    "latitude_direction": "S",
    "longitude": 13830.0,
    "longitude_direction": "E",
    "speed": 5.0,
    "track": 15.0,
    "date": 181023,
    "day": 18,
    "month": 10,
    "year": 23
  },
  {
    "raw": "$GPRMC,142103.827,A,3500.0,S,13830.0,E,5.0,15.0,181023,,,*0D",
    "utc": 142103.827,
    "latitude": 3500.0,
    "latitude_direction": "S",
    "longitude": 13830.0,
    "longitude_direction": "E",
    "speed": 5.0,
    "track": 15.0,
    "date": 181023,
    "day": 18,
    "month": 10,
    "year": 23
  },
  {
    "raw": "$GPRMC,142104.327,A,3500.0,S,13830.0,E,5.0,15.0,181023,,,*01",
    "utc": 142104.327,
    "latitude": 3500.0,
    "latitude_direction": "S",
    "longitude": 13830.0,
    "longitude_direction": "E",
    "speed": 5.0,
    "track": 15.0,
    "date": 181023,
    "day": 18,
    "month": 10,
    "year": 23
  },
  {
    "raw": "$GPRMC,142104.827,A,3500.0,S,13830.0,E,5.0,15.0,181023,,,*0A",
    "utc": 142104.827,
    "latitude": 3500.0,
    "latitude_direction": "S",
    "longitude": 13830.0,
    "longitude_direction": "E",
    "speed": 5.0,
    "track": 15.0,
    "date": 181023,
    "day": 18,
    "month": 10,
    "year": 23
  },
  {
    "raw": "$GPRMC,142105.327,A,3500.0,S,13830.0,E,5.0,15.0,181023,,,*00",
    "utc": 142105.327,
    "latitude": 3500.0,
    "latitude_direction": "S",
    "longitude": 13830.0,
    "longitude_direction": "E",
    "speed": 5.0,
    "track": 15.0,
    "date": 181023,
    "day": 18,
    "month": 10,
    "year": 23
  },
  {
    "raw": "$GPRMC,142105.827,A,3500.0,S,13830.0,E,5.0,15.0,181023,,,*0B",
    "utc": 142105.827,
    "latitude": 3500.0,
    "latitude_direction": "S",
    "longitude": 13830.0,
    "longitude_direction": "E",
    "speed": 5.0,
    "track": 15.0,
    "date": 181023,
    "day": 18,
    "month": 10,
    "year": 23
  },
  {
    "raw": "$GPRMC,142106.327,A,3500.0,S,13830.0,E,5.0,15.0,181023,,,*03",
    "utc": 142106.327,
    "latitude": 3500.0,
    "latitude_direction": "S",
    "longitude": 13830.0,
    "longitude_direction": "E",
    "speed": 5.0,
    "track": 15.0,
    "date": 181023,
    "day": 18,
    "month": 10,
    "year": 23
  },
  {
    "raw": "$GPRMC,142106.827,A,3500.0,S,13830.0,E,5.0,15.0,181023,,,*08",
    "utc": 142106.827,
    "latitude": 3500.0,
    "latitude_direction": "S",
    "longitude": 13830.0,
    "longitude_direction": "E",
    "speed": 5.0,
    "track": 15.0,
    "date": 181023,
    "day": 18,
    "month": 10,
    "year": 23
  },
  {
    "raw": "$GPRMC,142107.327,A,3500.0,S,13830.0,E,5.0,15.0,181023,,,*02",
    "utc": 142107.327,
    "latitude": 3500.0,
    "latitude_direction": "S",
    "longitude": 13830.0,
    "longitude_direction": "E",
    "speed": 5.0,
    "track": 15.0,
    "date": 181023,
    "day": 18,
    "month": 10,
    "year": 23
  },
  {
    "raw": "$GPRMC,142107.827,A,3500.0,S,13830.0,E,5.0,15.0,181023,,,*09",
    "utc": 142107.827,
    "latitude": 3500.0,
    "latitude_direction": "S",
    "longitude": 13830.0,
    "longitude_direction": "E",
    "speed": 5.0,
    "track": 15.0,
    "date": 181023,
    "day": 18,
    "month": 10,
    "year": 23
  },
  {
    "raw": "$GPRMC,142108.327,A,3500.0,S,13830.0,E,5.0,15.0,181023,,,*0D",
    "utc": 142108.327,
    "latitude": 3500.0,
    "latitude_direction": "S",
    "longitude": 13830.0,
    "longitude_direction": "E",
    "speed": 5.0,
    "track": 15.0,
    "date": 181023,
    "day": 18,
    "month": 10,
    "year": 23
  },
  {
    "raw": "$GPRMC,142108.827,A,3500.0,S,13830.0,E,5.0,15.0,181023,,,*06",
    "utc": 142108.827,
    "latitude": 3500.0,
    "latitude_direction": "S",
    "longitude": 13830.0,
    "longitude_direction": "E",
    "speed": 5.0,
    "track": 15.0,
    "date": 181023,
    "day": 18,
    "month": 10,
    "year": 23
  },
  {
    "raw": "$GPRMC,142109.327,A,3500.0,S,13830.0,E,5.0,15.0,181023,,,*0C",
    "utc": 142109.327,
    "latitude": 3500.0,
    "latitude_direction": "S",
    "longitude": 13830.0,
    "longitude_direction": "E",
    "speed": 5.0,
    "track": 15.0,
    "date": 181023,
    "day": 18,
    "month": 10,
    "year": 23
  },
  {
    "raw": "$GPRMC,142109.827,A,3500.0,S,13830.0,E,5.0,15.0,181023,,,*07",
    "utc": 142109.827,
    "latitude": 3500.0,
    "latitude_direction": "S",
    "longitude": 13830.0,
    "longitude_direction": "E",
    "speed": 5.0,
    "track": 15.0,
    "date": 181023,
    "day": 18,
    "month": 10,
    "year": 23
  },
  {
    "raw": "$GPRMC,142110.327,A,3500.0,S,13830.0,E,5.0,15.0,181023,,,*04",
    "utc": 142110.327,
    "latitude": 3500.0,
    "latitude_direction": "S",
    "longitude": 13830.0,
    "longitude_direction": "E",
    "speed": 5.0,
    "track": 15.0,
    "date": 181023,
    "day": 18,
    "month": 10,
    "year": 23
  },
  {
    "raw": "$GPRMC,142110.827,A,3500.0,S,13830.0,E,5.0,15.0,181023,,,*0F",
    "utc": 142110.827,
    "latitude": 3500.0,
    "latitude_direction": "S",
    "longitude": 13830.0,
    "longitude_direction": "E",
    "speed": 5.0,
    "track": 15.0,
    "date": 181023,
    "day": 18,
    "month": 10,
    "year": 23
  },
  {
    "raw": "$GPRMC,142111.327,A,3500.0,S,13830.0,E,5.0,15.0,181023,,,*05",
    "utc": 142111.327,
    "latitude": 3500.0,
    "latitude_direction": "S",
    "longitude": 13830.0,
    "longitude_direction": "E",
    "speed": 5.0,
    "track": 15.0,
    "date": 181023,
    "day": 18,
    "month": 10,
    "year": 23
  },
  {
    "raw": "$GPRMC,142111.827,A,3500.0,S,13830.0,E,5.0,15.0,181023,,,*0E",
    "utc": 142111.827,
    "latitude": 3500.0,
    "latitude_direction": "S",
    "longitude": 13830.0,
    "longitude_direction": "E",
    "speed": 5.0,
    "track": 15.0,
    "date": 181023,
    "day": 18,
    "month": 10,
    "year": 23
  },
  {
    "raw": "$GPRMC,142112.327,A,3500.0,S,13830.0,E,5.0,15.0,181023,,,*06",
    "utc": 142112.327,
    "latitude": 3500.0,
    "latitude_direction": "S",
    "longitude": 13830.0,
    "longitude_direction": "E",
    "speed": 5.0,
    "track": 15.0,
    "date": 181023,
    "day": 18,
    "month": 10,
    "year": 23
  },
  {
    "raw": "$GPRMC,142112.827,A,3500.0,S,13830.0,E,5.0,15.0,181023,,,*0D",
    "utc": 142112.827,
    "latitude": 3500.0,
    "latitude_direction": "S",
    "longitude": 13830.0,
    "longitude_direction": "E",
    "speed": 5.0,
    "track": 15.0,
    "date": 181023,
    "day": 18,
    "month": 10,
    "year": 23
  },
  {
    "raw": "$GPRMC,142113.327,A,3500.0,S,13830.0,E,5.0,15.0,181023,,,*07",
    "utc": 142113.327,
    "latitude": 3500.0,
    "latitude_direction": "S",
    "longitude": 13830.0,
    "longitude_direction": "E",
    "speed": 5.0,
    "track": 15.0,
    "date": 181023,
    "day": 18,
    "month": 10,
    "year": 23
  },
  {
    "raw": "$GPRMC,142113.827,A,3500.0,S,13830.0,E,5.0,15.0,181023,,,*0C",
    "utc": 142113.827,
    "latitude": 3500.0,
    "latitude_direction": "S",
    "longitude": 13830.0,
    "longitude_direction": "E",
    "speed": 5.0,
    "track": 15.0,
    "date": 181023,
    "day": 18,
    "month": 10,
    "year": 23
  },
  {
    "raw": "$GPRMC,142114.327,A,3500.0,S,13830.0,E,5.0,15.0,181023,,,*00",
    "utc": 142114.327,
    "latitude": 3500.0,
    "latitude_direction": "S",
    "longitude": 13830.0,
    "longitude_direction": "E",
    "speed": 5.0,
    "track": 15.0,
    "date": 181023,
    "day": 18,
    "month": 10,
    "year": 23
  },
  {
    "raw": "$GPRMC,142114.827,A,3500.0,S,13830.0,E,5.0,15.0,181023,,,*0B",
    "utc": 142114.827,
    "latitude": 3500.0,
    "latitude_direction": "S",
    "longitude": 13830.0,
    "longitude_direction": "E",
    "speed": 5.0,
    "track": 15.0,
    "date": 181023,
    "day": 18,
    "month": 10,
    "year": 23
  },
  {
    "raw": "$GPRMC,142115.327,A,3500.0,S,13830.0,E,5.0,15.0,181023,,,*01",
    "utc": 142115.327,
    "latitude": 3500.0,
    "latitude_direction": "S",
    "longitude": 13830.0,
    "longitude_direction": "E",
    "speed": 5.0,
    "track": 15.0,
    "date": 181023,
    "day": 18,
    "month": 10,
    "year": 23
  },
  {
    "raw": "$GPRMC,142115.827,A,3500.0,S,13830.0,E,5.0,15.0,181023,,,*0A",
    "utc": 142115.827,
    "latitude": 3500.0,
    "latitude_direction": "S",
    "longitude": 13830.0,
    "longitude_direction": "E",
    "speed": 5.0,
    "track": 15.0,
    "date": 181023,
    "day": 18,
    "month": 10,
    "year": 23
  },
  {
    "raw": "$GPRMC,142116.327,A,3500.0,S,13830.0,E,5.0,15.0,181023,,,*02",
    "utc": 142116.327,
    "latitude": 3500.0,
    "latitude_direction": "S",
    "longitude": 13830.0,
    "longitude_direction": "E",
    "speed": 5.0,
    "track": 15.0,
    "date": 181023,
    "day": 18,
    "month": 10,
    "year": 23
  },
  {
    "raw": "$GPRMC,142116.827,A,3500.0,S,13830.0,E,5.0,15.0,181023,,,*09",
    "utc": 142116.827,
    "latitude": 3500.0,
    "latitude_direction": "S",
    "longitude": 13830.0,
    "longitude_direction": "E",
    "speed": 5.0,
    "track": 15.0,
    "date": 181023,
    "day": 18,
    "month": 10,
    "year": 23
  },
  {
    "raw": "$GPRMC,142117.327,A,3500.0,S,13830.0,E,5.0,15.0,181023,,,*03",
    "utc": 142117.327,
    "latitude": 3500.0,
    "latitude_direction": "S",
    "longitude": 13830.0,
    "longitude_direction": "E",
    "speed": 5.0,
    "track": 15.0,
    "date": 181023,
    "day": 18,
    "month": 10,
    "year": 23
  },
  {
    "raw": "$GPRMC,142117.827,A,3500.0,S,13830.0,E,5.0,15.0,181023,,,*08",
    "utc": 142117.827,
    "latitude": 3500.0,
    "latitude_direction": "S",
    "longitude": 13830.0,
    "longitude_direction": "E",
    "speed": 5.0,
    "track": 15.0,
    "date": 181023,
    "day": 18,
    "month": 10,
    "year": 23
  },
  {
    "raw": "$GPRMC,142118.327,A,3500.0,S,13830.0,E,5.0,15.0,181023,,,*0C",
    "utc": 142118.327,
    "latitude": 3500.0,
    "latitude_direction": "S",
    "longitude": 13830.0,
    "longitude_direction": "E",
    "speed": 5.0,
    "track": 15.0,
    "date": 181023,
    "day": 18,
    "month": 10,
    "year": 23
  },
  {
    "raw": "$GPRMC,142118.827,A,3500.0,S,13830.0,E,5.0,15.0,181023,,,*07",
    "utc": 142118.827,
    "latitude": 3500.0,
    "latitude_direction": "S",
    "longitude": 13830.0,
    "longitude_direction": "E",
    "speed": 5.0,
    "track": 15.0,
    "date": 181023,
    "day": 18,
    "month": 10,
    "year": 23
  },
  {
    "raw": "$GPRMC,142119.327,A,3500.0,S,13830.0,E,5.0,15.0,181023,,,*0D",
    "utc": 142119.327,
    "latitude": 3500.0,
    "latitude_direction": "S",
    "longitude": 13830.0,
    "longitude_direction": "E",
    "speed": 5.0,
    "track": 15.0,
    "date": 181023,
    "day": 18,
    "month": 10,
    "year": 23
  },
  {
    "raw": "$GPRMC,142119.827,A,3500.0,S,13830.0,E,5.0,15.0,181023,,,*06",
    "utc": 142119.827,
    "latitude": 3500.0,
    "latitude_direction": "S",
    "longitude": 13830.0,
    "longitude_direction": "E",
    "speed": 5.0,
    "track": 15.0,
    "date": 181023,
    "day": 18,
    "month": 10,
    "year": 23
  },
  {
    "raw": "$GPRMC,142120.327,A,3500.0,S,13830.0,E,5.0,15.0,181023,,,*07",
    "utc": 142120.327,
    "latitude": 3500.0,
    "latitude_direction": "S",
    "longitude": 13830.0,
    "longitude_direction": "E",
    "speed": 5.0,
    "track": 15.0,
    "date": 181023,
    "day": 18,
    "month": 10,
    "year": 23
  },
  {
    "raw": "$GPRMC,142120.827,A,3500.0,S,13830.0,E,5.0,15.0,181023,,,*0C",
    "utc": 142120.827,
    "latitude": 3500.0,
    "latitude_direction": "S",
    "longitude": 13830.0,
    "longitude_direction": "E",
    "speed": 5.0,
    "track": 15.0,
    "date": 181023,
    "day": 18,
    "month": 10,
    "year": 23
  },
  {
    "raw": "$GPRMC,142121.327,A,3500.0,S,13830.0,E,5.0,15.0,181023,,,*06",
    "utc": 142121.327,
    "latitude": 3500.0,
    "latitude_direction": "S",
    "longitude": 13830.0,
    "longitude_direction": "E",
    "speed": 5.0,
    "track": 15.0,
    "date": 181023,
    "day": 18,
    "month": 10,
    "year": 23
  },
  {
    "raw": "$GPRMC,142121.827,A,3500.0,S,13830.0,E,5.0,15.0,181023,,,*0D",
    "utc": 142121.827,
    "latitude": 3500.0,
    "latitude_direction": "S",
    "longitude": 13830.0,
    "longitude_direction": "E",
    "speed": 5.0,
    "track": 15.0,
    "date": 181023,
    "day": 18,
    "month": 10,
    "year": 23
  },
  {
    "raw": "$GPRMC,142122.327,A,3500.0,S,13830.0,E,5.0,15.0,181023,,,*05",
    "utc": 142122.327,
    "latitude": 3500.0,
    "latitude_direction": "S",
    "longitude": 13830.0,
    "longitude_direction": "E",
    "speed": 5.0,
    "track": 15.0,
    "date": 181023,
    "day": 18,
    "month": 10,
    "year": 23
  },
  {
    "raw": "$GPRMC,142122.827,A,3500.0,S,13830.0,E,5.0,15.0,181023,,,*0E",
    "utc": 142122.827,
    "latitude": 3500.0,
    "latitude_direction": "S",
    "longitude": 13830.0,
    "longitude_direction": "E",
    "speed": 5.0,
    "track": 15.0,
    "date": 181023,
    "day": 18,
    "month": 10,
    "year": 23
  },
  {
